{
  "apotheke": [
    {
      "name": "Oststadt-Apotheke",
      "kammer": "lakt",
      "id": "321",
      "apo_id": "lakt321",
      "strasse": "Kindleber Str. 99",
      "plz": "99867",
      "ort": "Gotha",
      "distanz": "1.98117757465",
      "longitude": "10.7213597",
      "latitude": "50.9620911",
      "telefon": "03621/406258",
      "fax": [],
      "email": [],
      "startdatum": "09.09.2024",
      "startzeit": "08:00",
      "enddatum": "10.09.2024",
      "endzeit": "08:00"
    },
    {
      "name": "Berg-Apotheke",
      "kammer": "lakt",
      "id": "127",
      "apo_id": "lakt127",
      "strasse": "Lauchagrundstraße 6",
      "plz": "99891",
      "ort": "Bad Tabarz",
      "distanz": "15.46333665739",
      "longitude": "10.5149366",
      "latitude": "50.8758726",
      "telefon": "+49 36259 62228",
      "fax": [],
      "email": [],
      "startdatum": "09.09.2024",
      "startzeit": "08:00",
      "enddatum": "10.09.2024",
      "endzeit": "08:00"
    },
    {
      "name": "Linden-Apotheke",
      "kammer": "lakt",
      "id": "172",
      "apo_id": "lakt172",
      "strasse": "Hauptstr. 144",
      "plz": "99820",
      "ort": "Hörselberg-Hainich, OT Behringen",
      "distanz": "15.62839934529",
      "longitude": "10.5090805",
      "latitude": "51.0201411",
      "telefon": "036254/71413",
      "fax": [],
      "email": [],
      "startdatum": "09.09.2024",
      "startzeit": "08:00",
      "enddatum": "10.09.2024",
      "endzeit": "08:00"
    },
    {
      "name": "Stadt-Apotheke",
      "kammer": "lakt",
      "id": "1576",
      "apo_id": "lakt1576",
      "strasse": "Turnvater-Jahn-Straße 4",
      "plz": "99310",
      "ort": "Arnstadt",
      "distanz": "21.3552634954",
      "longitude": "10.9456407",
      "latitude": "50.8354836",
      "telefon": "03628/585840",
      "fax": [],
      "email": [],
      "startdatum": "09.09.2024",
      "startzeit": "08:00",
      "enddatum": "10.09.2024",
      "endzeit": "08:00"
    },
    {
      "name": "Bahnhof-Apotheke",
      "kammer": "lakt",
      "id": "5",
      "apo_id": "lakt5",
      "strasse": "Bahnhofstr. 40",
      "plz": "99084",
      "ort": "Erfurt",
      "distanz": "23.60548452515",
      "longitude": "11.0350444",
      "latitude": "50.9747884",
      "telefon": "0361/555410",
      "fax": [],
      "email": [],
      "startdatum": "09.09.2024",
      "startzeit": "09:00",
      "enddatum": "10.09.2024",
      "endzeit": "09:00"
    },
    {
      "name": "Andreas-Apotheke",
      "kammer": "lakt",
      "id": "270",
      "apo_id": "lakt270",
      "strasse": "Marktstr. 23",
      "plz": "99991",
      "ort": "Großengottern",
      "distanz": "24.02572701572",
      "longitude": "10.5656984",
      "latitude": "51.1477745",
      "telefon": "036022/96315",
      "fax": [],
      "email": [],
      "startdatum": "09.09.2024",
      "startzeit": "08:00",
      "enddatum": "10.09.2024",
      "endzeit": "08:00"
    },
    {
      "name": "Rats-Apotheke",
      "kammer": "lakt",
      "id": "285",
      "apo_id": "lakt285",
      "strasse": "Markt 4",
      "plz": "99955",
      "ort": "Bad Tennstedt",
      "distanz": "24.68823422627",
      "longitude": "10.8364564",
      "latitude": "51.154439",
      "telefon": "036041/57048",
      "fax": [],
      "email": [],
      "startdatum": "09.09.2024",
      "startzeit": "08:00",
      "enddatum": "10.09.2024",
      "endzeit": "08:00"
    },
    {
      "name": "Delphin-Apotheke",
      "kammer": "lakt",
      "id": "503",
      "apo_id": "lakt503",
      "strasse": "Hermsdorfer Straße 4",
      "plz": "99099",
      "ort": "Erfurt",
      "distanz": "25.29025882676",
      "longitude": "11.0598792",
      "latitude": "50.9704011",
      "telefon": "0361/3458213",
      "fax": [],
      "email": [],
      "startdatum": "09.09.2024",
      "startzeit": "09:00",
      "enddatum": "10.09.2024",
      "endzeit": "09:00"
    }
  ]
}